{
  "cities": [
    {
      "id": "berlin",
      "name": "Berlin, Deutschland",
      "latitude": 52.52,
      "longitude": 13.405
    },
    {
      "id": "k-ln-deutschland",
      "name": "Köln, Deutschland",
      "latitude": 50.93333,
      "longitude": 6.95
    },
    {
      "id": "ludwigshafen-deutschland",
      "name": "Ludwigshafen, Deutschland",
      "latitude": 47.81663,
      "longitude": 9.06138
    },
    {
      "id": "m-nchen-deutschland",
      "name": "München, Deutschland",
      "latitude": 48.13743,
      "longitude": 11.57549
    },
    {
      "id": "frankfurt-deutschland",
      "name": "Frankfurt, Deutschland",
      "latitude": 49.68333,
      "longitude": 10.53333
    },
    {
      "id": "freiberg-deutschland",
      "name": "Freiberg, Deutschland",
      "latitude": 50.91089,
      "longitude": 13.33881
    },
    {
      "id": "new-york-city-usa",
      "name": "New York City, USA",
      "latitude": 40.71427,
      "longitude": -74.00597
    }
  ]
}